$GPRMC,233330.557,A,4348.0022,N,12038.9769,W,021.3
$GPRMC,233331.557,A,4348.0054,N,12038.9657,W,022.8
$GPRMC,233332.557,A,4348.0054,N,12038.9657,W,022.8
$GPRMC,233333.557,A,4348.0054,N,12038.9657,W,030.1
$GPRMC,233334.557,A,4348.0054,N,12038.9657,W,029.1
$GPRMC,233335.557,A,4348.0054,N,12038.9657,W,018.5
$GPRMC,233336.557,A,4348.0054,N,12038.9657,W,018.0
$GPRMC,233337.557,A,4348.0054,N,12038.9657,W,027.1
$GPRMC,233338.557,A,4347.9855,N,12038.9396,W,024.6
$GPRMC,233339.557,A,4347.9215,N,12038.9111,W,031.2
$GPRMC,233340.557,A,4347.8742,N,12038.8895,W,033.4
$GPRMC,233341.557,A,4347.8960,N,12038.8839,W,021.3
$GPRMC,233342.557,A,4347.9003,N,12038.8632,W,011.7
$GPRMC,233343.557,A,4347.9279,N,12038.8569,W,007.5
$GPRMC,233344.557,A,4347.9340,N,12038.8578,W,004.8
$GPRMC,233345.557,A,4347.9408,N,12038.8537,W,003.7
$GPRMC,233346.557,A,4347.9425,N,12038.8507,W,001.1
$GPRMC,233347.557,A,4347.9373,N,12038.8460,W,003.2
$GPRMC,233348.557,A,4347.9359,N,12038.8438,W,004.7
$GPRMC,233349.557,A,4347.9334,N,12038.8397,W,006.7
$GPRMC,233350.557,A,4347.9384,N,12038.8375,W,005.6
$GPRMC,233351.557,A,4347.9384,N,12038.8375,W,009.7
$GPRMC,233352.557,A,4347.9374,N,12038.8313,W,009.1
$GPRMC,233353.557,A,4347.9519,N,12038.8241,W,010.0
$GPRMC,233354.557,A,4347.9519,N,12038.8241,W,009.8
$GPRMC,233355.557,A,4347.9519,N,12038.8241,W,009.9
$GPRMC,233356.557,A,4347.9519,N,12038.8241,W,011.2
$GPRMC,233357.557,A,4347.9519,N,12038.8241,W,012.3
$GPRMC,233358.557,A,4347.9519,N,12038.8241,W,008.8
$GPRMC,233359.557,A,4347.9540,N,12038.8177,W,006.4
$GPRMC,233400.557,A,4347.9415,N,12038.7994,W,008.5
$GPRMC,233401.557,A,4347.9483,N,12038.7927,W,010.6
$GPRMC,233402.557,A,4347.9503,N,12038.7862,W,014.0
$GPRMC,233403.557,A,4347.9508,N,12038.7780,W,015.1
$GPRMC,233404.557,A,4347.9443,N,12038.7662,W,013.7
$GPRMC,233405.557,A,4347.9446,N,12038.7612,W,011.4
$GPRMC,233406.557,A,4347.9484,N,12038.7577,W,011.4
$GPRMC,233407.557,A,4347.9515,N,12038.7535,W,013.4
$GPRMC,233408.557,A,4347.9547,N,12038.7488,W,015.1
$GPRMC,233409.557,A,4347.9569,N,12038.7422,W,017.0
$GPRMC,233410.557,A,4347.9585,N,12038.7348,W,016.5
$GPRMC,233411.557,A,4347.9648,N,12038.7293,W,015.0
$GPRMC,233412.557,A,4347.9659,N,12038.7238,W,013.5
$GPRMC,233413.557,A,4347.9637,N,12038.7151,W,013.1
$GPRMC,233414.557,A,4347.9645,N,12038.7103,W,011.9
$GPRMC,233415.557,A,4347.9648,N,12038.7057,W,011.4
$GPRMC,233416.557,A,4347.9659,N,12038.7010,W,012.5
$GPRMC,233417.557,A,4347.9620,N,12038.6950,W,004.6
$GPRMC,233418.557,A,4347.9622,N,12038.6934,W,001.6
$GPRMC,233419.557,A,4347.9618,N,12038.6927,W,000.0
$GPRMC,233420.557,A,4347.9614,N,12038.6924,W,003.1
$GPRMC,233421.557,A,4347.9612,N,12038.6922,W,005.8
$GPRMC,233422.557,A,4347.9608,N,12038.6888,W,007.8
$GPRMC,233423.557,A,4347.9613,N,12038.6856,W,008.3
$GPRMC,233424.557,A,4347.9625,N,12038.6829,W,008.9
$GPRMC,233425.557,A,4347.9651,N,12038.6798,W,009.4
$GPRMC,233426.557,A,4347.9678,N,12038.6785,W,009.1
$GPRMC,233427.557,A,4347.9695,N,12038.6778,W,009.1
$GPRMC,233428.557,A,4347.9713,N,12038.6767,W,009.0
$GPRMC,233429.557,A,4347.9729,N,12038.6759,W,007.4
$GPRMC,233430.557,A,4347.9745,N,12038.6751,W,006.8
$GPRMC,233431.557,A,4347.9756,N,12038.6739,W,007.4
$GPRMC,233432.557,A,4347.9775,N,12038.6735,W,008.0
$GPRMC,233433.557,A,4347.9789,N,12038.6739,W,005.4
$GPRMC,233434.557,A,4347.9796,N,12038.6749,W,005.1
$GPRMC,233435.557,A,4347.9806,N,12038.6761,W,005.2
$GPRMC,233436.557,A,4347.9820,N,12038.6770,W,005.3
$GPRMC,233437.557,A,4347.9835,N,12038.6770,W,005.6
$GPRMC,233438.557,A,4347.9867,N,12038.6780,W,007.1
$GPRMC,233439.557,A,4347.9882,N,12038.6794,W,005.6
$GPRMC,233440.557,A,4347.9896,N,12038.6809,W,004.4
$GPRMC,233441.557,A,4347.9904,N,12038.6827,W,004.4
$GPRMC,233442.557,A,4347.9906,N,12038.6830,W,002.5
$GPRMC,233443.557,A,4347.9901,N,12038.6827,W,001.1
$GPRMC,233444.557,A,4347.9895,N,12038.6838,W,004.3
$GPRMC,233445.557,A,4347.9890,N,12038.6864,W,004.7
$GPRMC,233446.557,A,4347.9901,N,12038.6882,W,005.0
$GPRMC,233447.557,A,4347.9914,N,12038.6896,W,005.1
$GPRMC,233448.557,A,4347.9926,N,12038.6911,W,006.3
$GPRMC,233449.557,A,4347.9936,N,12038.6924,W,006.4
$GPRMC,233450.557,A,4347.9952,N,12038.6939,W,007.7
$GPRMC,233451.557,A,4347.9958,N,12038.6948,W,006.9
$GPRMC,233452.557,A,4347.9968,N,12038.6960,W,006.0
$GPRMC,233453.557,A,4347.9985,N,12038.6976,W,008.1
$GPRMC,233454.557,A,4347.9996,N,12038.6992,W,006.8
$GPRMC,233455.557,A,4348.0006,N,12038.7007,W,011.6
$GPRMC,233456.557,A,4348.0021,N,12038.7022,W,006.1
$GPRMC,233457.557,A,4348.0040,N,12038.7042,W,006.1
$GPRMC,233458.557,A,4348.0050,N,12038.7052,W,003.1
$GPRMC,233459.557,A,4348.0051,N,12038.7051,W,001.4
$GPRMC,233500.557,A,4348.0050,N,12038.7049,W,000.0
$GPRMC,233501.557,A,4348.0046,N,12038.7046,W,000.0
$GPRMC,233502.557,A,4348.0045,N,12038.7044,W,000.0
$GPRMC,233503.557,A,4348.0043,N,12038.7043,W,000.0
$GPRMC,233504.557,A,4348.0040,N,12038.7039,W,000.0
$GPRMC,233505.557,A,4348.0039,N,12038.7038,W,000.0
$GPRMC,233506.557,A,4348.0037,N,12038.7036,W,000.0
$GPRMC,233507.557,A,4348.0036,N,12038.7035,W,000.0
