$GPGGA,233330.557,4348.0022,N,12038.9769,W,1,04,11.5,1380.3,M,-19.1,M,,0000*65
$GPGSA,A,3,16,26,30,06,,,,,,,,,15.6,11.5,10.5*07
$GPGSV,3,1,12,23,72,106,00,09,69,313,00,16,48,063,14,07,44,261,*75
$GPGSV,3,2,12,26,21,044,39,03,21,177,,30,17,253,41,04,06,036,24*72
$GPGSV,3,3,12,08,05,139,31,06,05,271,38,22,04,168,38,02,03,305,41*70
$GPRMC,233330.557,A,4348.0022,N,12038.9769,W,021.3,082.6,060118,,,A*79
$GPVTG,082.6,T,,M,021.3,N,039.5,K,A*0E
$GPGGA,233331.557,4348.0054,N,12038.9657,W,1,03,4.1,1383.4,M,-19.1,M,,0000*5A
$GPGSA,A,2,26,30,06,,,,,,,,,,4.3,4.1,1.2*33
$GPGSV,3,1,12,23,72,106,41,09,69,313,00,16,48,063,13,07,44,261,*77
$GPGSV,3,2,12,26,21,044,44,03,21,177,,30,17,253,41,04,06,036,24*78
$GPGSV,3,3,12,08,05,139,32,06,05,271,24,22,04,168,29,02,03,305,38*70
$GPRMC,233331.557,A,4348.0054,N,12038.9657,W,022.8,078.3,060118,,,A*7D
$GPVTG,078.3,T,,M,022.8,N,042.2,K,A*0D
$GPGGA,233332.557,4348.0054,N,12038.9657,W,1,03,4.1,1383.4,M,-19.1,M,,0000*59
$GPGSA,A,2,23,26,30,,,,,,,,,,4.3,4.1,1.2*34
$GPGSV,3,1,12,23,72,106,42,09,69,313,10,16,48,063,00,07,44,261,*77
$GPGSV,3,2,12,03,21,177,00,26,21,044,44,30,17,253,41,04,06,036,23*7F
$GPGSV,3,3,12,08,05,139,36,06,05,271,24,22,04,168,33,02,03,305,32*75
$GPRMC,233332.557,A,4348.0054,N,12038.9657,W,022.8,078.3,060118,,,A*7E
$GPVTG,078.3,T,,M,022.8,N,042.2,K,A*0D
$GPGGA,233333.557,4348.0054,N,12038.9657,W,1,05,4.1,1383.4,M,-19.1,M,,0000*5E
$GPGSA,A,3,16,23,26,30,06,,,,,,,,4.3,4.1,1.2*34
$GPGSV,3,1,12,23,72,106,41,09,69,313,09,16,48,063,41,07,44,261,*79
$GPGSV,3,2,12,03,21,177,28,26,21,044,44,30,17,253,39,04,06,036,23*7A
$GPGSV,3,3,12,08,05,139,34,06,05,271,27,22,04,168,26,02,03,305,26*75
$GPRMC,233333.557,A,4348.0054,N,12038.9657,W,030.1,078.3,060118,,,A*75
$GPVTG,078.3,T,,M,030.1,N,055.7,K,A*04
$GPGGA,233334.557,4348.0054,N,12038.9657,W,1,05,4.1,1383.4,M,-19.1,M,,0000*59
$GPGSA,A,3,16,23,26,30,06,,,,,,,,4.3,4.1,1.2*34
$GPGSV,3,1,12,23,72,106,40,09,69,313,,16,48,063,43,07,44,261,*73
$GPGSV,3,2,12,03,21,177,25,26,21,044,46,30,17,253,38,04,06,036,45*74
$GPGSV,3,3,12,08,05,139,25,06,05,271,27,22,04,168,33,02,03,305,34*72
$GPRMC,233334.557,A,4348.0054,N,12038.9657,W,029.1,078.3,060118,,,A*7A
$GPVTG,078.3,T,,M,029.1,N,053.9,K,A*04
$GPGGA,233335.557,4348.0054,N,12038.9657,W,1,06,4.1,1383.4,M,-19.1,M,,0000*5B
$GPGSA,A,3,03,16,23,26,30,06,,,,,,,4.3,4.1,1.2*37
$GPGSV,3,1,12,23,72,106,41,09,69,313,,16,48,063,43,07,44,261,*72
$GPGSV,3,2,12,03,21,177,22,26,21,044,46,30,17,253,36,04,06,036,45*7D
$GPGSV,3,3,12,08,05,139,30,06,05,271,33,22,04,168,33,02,03,305,33*74
$GPRMC,233335.557,A,4348.0054,N,12038.9657,W,018.5,078.3,060118,,,A*7D
$GPVTG,078.3,T,,M,018.5,N,034.2,K,A*08
$GPGGA,233336.557,4348.0054,N,12038.9657,W,1,06,4.1,1383.4,M,-19.1,M,,0000*58
$GPGSA,A,3,03,16,23,26,30,06,,,,,,,4.3,4.1,1.2*37
$GPGSV,3,1,12,23,72,106,43,09,69,313,00,16,48,063,43,07,44,261,*70
$GPGSV,3,2,12,03,21,177,22,26,21,044,46,30,17,253,39,04,06,036,43*74
$GPGSV,3,3,12,08,05,139,34,06,05,271,33,22,04,168,33,02,03,305,35*76
$GPRMC,233336.557,A,4348.0054,N,12038.9657,W,018.0,078.3,060118,,,A*7B
$GPVTG,078.3,T,,M,018.0,N,033.3,K,A*0B
$GPGGA,233337.557,4348.0054,N,12038.9657,W,1,06,4.1,1383.4,M,-19.1,M,,0000*59
$GPGSA,A,3,16,09,23,26,30,06,,,,,,,4.3,4.1,1.2*3D
$GPGSV,3,1,12,23,72,106,40,09,69,313,45,16,48,063,43,07,44,261,00*72
$GPGSV,3,2,12,26,21,044,46,03,21,177,,30,17,253,33,04,06,036,47*7A
$GPGSV,3,3,12,08,05,139,38,06,05,271,28,22,04,168,37,02,03,305,40*76
$GPRMC,233337.557,A,4348.0054,N,12038.9657,W,027.1,078.3,060118,,,A*77
$GPVTG,078.3,T,,M,027.1,N,050.3,K,A*03
$GPGGA,233338.557,4347.9855,N,12038.9396,W,1,05,11.4,1389.8,M,-19.1,M,,0000*65
$GPGSA,A,3,16,23,26,30,06,,,,,,,,15.0,11.4,9.7*3B
$GPGSV,3,1,12,23,72,106,40,09,69,313,31,16,48,063,38,07,44,261,43*7A
$GPGSV,3,2,12,26,21,044,39,03,21,177,,30,17,253,34,04,06,036,41*73
$GPGSV,3,3,12,08,05,139,39,06,05,271,34,22,04,168,41,02,03,305,35*79
$GPRMC,233338.557,A,4347.9855,N,12038.9396,W,024.6,098.8,060118,,,A*7E
$GPVTG,098.8,T,,M,024.6,N,045.5,K,A*00
$GPGGA,233339.557,4347.9215,N,12038.9111,W,1,06,2.4,1409.0,M,-19.1,M,,0000*51
$GPGSA,A,3,16,09,23,26,30,06,,,,,,,3.0,2.4,1.7*3F
$GPGSV,3,1,12,23,72,106,45,09,69,313,36,16,48,063,46,07,44,261,38*7D
$GPGSV,3,2,12,26,21,044,46,03,21,177,,30,17,253,32,04,06,036,44*78
$GPGSV,3,3,12,08,05,139,40,06,05,271,35,22,04,168,41,02,03,305,36*75
$GPRMC,233339.557,A,4347.9215,N,12038.9111,W,031.2,134.1,060118,,,A*72
$GPVTG,134.1,T,,M,031.2,N,057.7,K,A*0F
$GPGGA,233340.557,4347.8742,N,12038.8895,W,1,06,2.4,1542.8,M,-19.1,M,,0000*5B
$GPGSA,A,3,16,09,23,26,30,06,,,,,,,3.0,2.4,1.7*3F
$GPGSV,3,1,12,23,72,106,45,09,69,313,31,16,48,063,46,07,44,261,40*75
$GPGSV,3,2,12,26,21,044,46,03,21,177,,30,17,253,29,04,06,036,46*70
$GPGSV,3,3,12,08,05,139,33,06,05,271,35,22,04,168,40,02,03,305,43*72
$GPRMC,233340.557,A,4347.8742,N,12038.8895,W,033.4,144.4,060118,,,A*78
$GPVTG,144.4,T,,M,033.4,N,061.9,K,A*02
$GPGGA,233341.557,4347.8960,N,12038.8839,W,1,07,2.4,1657.9,M,-19.1,M,,0000*55
$GPGSA,A,3,07,16,09,23,26,30,06,,,,,,2.9,2.4,1.6*31
$GPGSV,3,1,12,23,72,106,42,09,69,313,43,16,48,063,40,07,44,261,45*74
$GPGSV,3,2,12,26,21,044,40,03,21,177,,30,17,253,38,04,06,036,40*70
$GPGSV,3,3,12,08,05,139,42,06,05,271,33,22,04,168,41,02,03,304,31*77
$GPRMC,233341.557,A,4347.8960,N,12038.8839,W,021.3,137.8,060118,,,A*7D
$GPVTG,137.8,T,,M,021.3,N,039.4,K,A*0E
$GPGGA,233342.557,4347.9003,N,12038.8632,W,1,07,2.4,1765.1,M,-19.1,M,,0000*56
$GPGSA,A,3,07,16,09,23,26,30,06,,,,,,2.9,2.4,1.6*31
$GPGSV,3,1,12,23,72,106,47,09,69,313,47,16,48,063,47,07,44,261,48*7F
$GPGSV,3,2,12,26,21,044,39,03,20,177,,30,17,253,31,04,06,036,37*76
$GPGSV,3,3,12,08,05,139,38,06,05,271,40,22,04,168,41,02,03,304,38*77
$GPRMC,233342.557,A,4347.9003,N,12038.8632,W,011.7,155.8,060118,,,A*75
$GPVTG,155.8,T,,M,011.7,N,021.7,K,A*07
$GPGGA,233343.557,4347.9279,N,12038.8569,W,1,07,2.4,1886.2,M,-19.1,M,,0000*54
$GPGSA,A,3,07,16,09,23,26,30,06,,,,,,2.9,2.4,1.6*31
$GPGSV,3,1,12,23,72,106,48,09,69,313,49,16,48,063,44,07,44,261,46*73
$GPGSV,3,2,12,26,21,044,37,03,20,177,,30,17,253,41,04,06,036,35*7D
$GPGSV,3,3,12,08,05,139,33,06,05,271,40,22,04,168,39,02,03,304,37*7C
$GPRMC,233343.557,A,4347.9279,N,12038.8569,W,007.5,180.8,060118,,,A*7B
$GPVTG,180.8,T,,M,007.5,N,013.9,K,A*05
$GPGGA,233344.557,4347.9340,N,12038.8578,W,1,07,2.4,1916.8,M,-19.1,M,,0000*5A
$GPGSA,A,3,07,16,09,23,26,30,06,,,,,,2.9,2.4,1.6*31
$GPGSV,3,1,12,23,72,106,36,09,69,313,37,16,48,063,39,07,44,261,46*79
$GPGSV,3,2,12,26,21,044,39,03,20,177,,30,17,253,40,04,06,036,38*7F
$GPGSV,3,3,12,08,05,139,41,06,05,271,31,22,04,168,40,02,03,304,31*77
$GPRMC,233344.557,A,4347.9340,N,12038.8578,W,004.8,187.4,060118,,,A*72
$GPVTG,187.4,T,,M,004.8,N,008.9,K,A*0A
$GPGGA,233345.557,4347.9408,N,12038.8537,W,1,07,2.4,1999.7,M,-19.1,M,,0000*53
$GPGSA,A,3,07,16,09,23,26,30,06,,,,,,2.9,2.4,1.6*31
$GPGSV,3,1,12,23,72,106,38,09,69,313,40,16,48,063,42,07,44,261,39*73
$GPGSV,3,2,12,26,21,044,35,03,20,177,,30,17,253,42,04,06,036,39*70
$GPGSV,3,3,12,08,05,139,40,06,05,271,38,22,04,168,41,02,03,304,33*7C
$GPRMC,233345.557,A,4347.9408,N,12038.8537,W,003.7,192.8,060118,,,A*73
$GPVTG,192.8,T,,M,003.7,N,006.9,K,A*04
$GPGGA,233346.557,4347.9425,N,12038.8507,W,1,07,2.4,2010.7,M,-19.1,M,,0000*57
$GPGSA,A,3,07,16,09,23,26,30,06,,,,,,2.9,2.4,1.6*31
$GPGSV,3,1,12,23,72,106,36,09,69,313,37,16,48,063,41,07,44,262,44*77
$GPGSV,3,2,12,26,21,044,40,03,20,177,,30,17,253,31,04,06,036,41*79
$GPGSV,3,3,12,08,05,139,35,06,05,271,39,22,04,168,40,02,03,304,34*79
$GPRMC,233346.557,A,4347.9425,N,12038.8507,W,001.1,156.7,060118,,,A*7F
$GPVTG,156.7,T,,M,001.1,N,002.1,K,A*0B
$GPGGA,233347.557,4347.9373,N,12038.8460,W,1,07,2.4,2062.3,M,-19.1,M,,0000*53
$GPGSA,A,3,07,16,09,23,26,30,06,,,,,,2.9,2.4,1.6*31
$GPGSV,3,1,12,23,72,106,39,09,69,313,35,16,48,063,39,07,44,262,44*75
$GPGSV,3,2,12,26,21,044,40,03,20,177,,30,17,253,30,04,06,036,40*79
$GPGSV,3,3,12,08,05,139,45,06,05,271,26,22,04,168,35,02,03,304,28*7F
$GPRMC,233347.557,A,4347.9373,N,12038.8460,W,003.2,096.6,060118,,,A*77
$GPVTG,096.6,T,,M,003.2,N,005.9,K,A*09
$GPGGA,233348.557,4347.9359,N,12038.8438,W,1,07,2.4,2095.0,M,-19.1,M,,0000*52
$GPGSA,A,3,07,16,09,23,26,30,06,,,,,,2.9,2.4,1.6*31
$GPGSV,3,1,12,23,72,106,34,09,70,313,34,16,48,063,40,07,44,262,40*7B
$GPGSV,3,2,12,26,21,044,43,03,20,177,,30,17,253,36,04,06,036,44*78
$GPGSV,3,3,12,08,05,139,42,06,05,271,35,22,04,168,33,02,03,304,36*73
$GPRMC,233348.557,A,4347.9359,N,12038.8438,W,004.7,074.5,060118,,,A*70
$GPVTG,074.5,T,,M,004.7,N,008.7,K,A*07
$GPGGA,233349.557,4347.9334,N,12038.8397,W,1,07,2.4,2102.7,M,-19.1,M,,0000*52
$GPGSA,A,3,07,16,09,23,26,30,06,,,,,,2.9,2.4,1.6*31
$GPGSV,3,1,12,23,72,106,34,09,70,313,33,16,48,063,42,07,44,262,46*78
$GPGSV,3,2,12,26,21,044,41,03,20,177,,30,17,253,28,04,06,036,41*70
$GPGSV,3,3,12,08,05,139,45,06,05,271,33,22,04,168,43,02,03,304,33*70
$GPRMC,233349.557,A,4347.9334,N,12038.8397,W,006.7,074.5,060118,,,A*7A
$GPVTG,074.5,T,,M,006.7,N,012.4,K,A*0D
$GPGGA,233350.557,4347.9384,N,12038.8375,W,1,07,2.4,2123.7,M,-19.1,M,,0000*5E
$GPGSA,A,3,07,16,09,23,26,30,06,,,,,,2.9,2.4,1.6*31
$GPGSV,3,1,12,23,72,106,33,09,70,313,41,16,48,063,37,07,44,262,39*70
$GPGSV,3,2,12,26,21,044,24,03,20,177,,30,17,253,33,04,06,036,33*7C
$GPGSV,3,3,12,08,05,139,28,06,05,271,33,22,04,168,45,02,03,304,34*7A
$GPRMC,233350.557,A,4347.9384,N,12038.8375,W,005.6,069.7,060118,,,A*79
$GPVTG,069.7,T,,M,005.6,N,010.4,K,A*03
$GPGGA,233351.557,4347.9384,N,12038.8375,W,1,07,2.4,2123.7,M,-19.1,M,,0000*5F
$GPGSA,A,3,07,16,09,23,26,30,06,,,,,,2.9,2.4,1.6*31
$GPGSV,3,1,12,23,72,106,39,09,70,313,40,16,48,063,39,07,44,262,47*7C
$GPGSV,3,2,12,26,21,044,40,03,20,177,,30,17,253,40,04,06,036,31*78
$GPGSV,3,3,12,08,05,139,39,06,05,271,33,22,04,168,42,02,03,304,34*7D
$GPRMC,233351.557,A,4347.9384,N,12038.8375,W,009.7,069.7,060118,,,A*75
$GPVTG,069.7,T,,M,009.7,N,017.9,K,A*04
$GPGGA,233352.557,4347.9374,N,12038.8313,W,1,07,2.4,2126.9,M,-19.1,M,,0000*58
$GPGSA,A,3,07,16,09,23,26,30,06,,,,,,2.9,2.4,1.6*31
$GPGSV,3,1,12,23,72,106,41,09,70,313,38,16,48,063,33,07,44,262,39*7F
$GPGSV,3,2,12,26,21,044,39,03,20,177,,30,17,253,38,04,06,036,27*7E
$GPGSV,3,3,12,08,05,139,41,06,05,271,26,22,04,168,42,02,03,304,40*75
$GPRMC,233352.557,A,4347.9374,N,12038.8313,W,009.1,063.2,060118,,,A*70
$GPVTG,063.2,T,,M,009.1,N,016.8,K,A*0D
$GPGGA,233353.557,4347.9519,N,12038.8241,W,1,07,2.4,2144.2,M,-19.1,M,,0000*5D
$GPGSA,A,3,07,16,09,23,26,30,06,,,,,,2.9,2.4,1.6*31
$GPGSV,3,1,12,23,72,106,42,09,70,313,39,16,48,063,38,07,44,262,44*7C
$GPGSV,3,2,12,26,21,044,40,03,20,177,,30,17,253,45,04,06,036,39*75
$GPGSV,3,3,12,08,05,139,37,06,05,271,40,22,04,168,34,02,03,304,40*75
$GPRMC,233353.557,A,4347.9519,N,12038.8241,W,010.0,048.4,060118,,,A*7C
$GPVTG,048.4,T,,M,010.0,N,018.5,K,A*08
$GPGGA,233354.557,4347.9519,N,12038.8241,W,1,07,2.4,2144.2,M,-19.1,M,,0000*5A
$GPGSA,A,3,07,16,09,23,26,30,06,,,,,,2.9,2.4,1.6*31
$GPGSV,3,1,12,23,72,106,37,09,70,313,33,16,48,063,40,07,44,262,38*70
$GPGSV,3,2,12,26,21,044,40,03,20,177,,30,17,253,33,04,06,036,41*7B
$GPGSV,3,3,12,08,05,139,39,06,05,271,32,22,04,168,36,02,03,304,40*7C
$GPRMC,233354.557,A,4347.9519,N,12038.8241,W,009.8,048.4,060118,,,A*7B
$GPVTG,048.4,T,,M,009.8,N,018.2,K,A*0F
$GPGGA,233355.557,4347.9519,N,12038.8241,W,1,07,2.4,2144.2,M,-19.1,M,,0000*5B
$GPGSA,A,3,07,16,09,23,26,30,06,,,,,,2.9,2.4,1.6*31
$GPGSV,3,1,12,23,72,106,37,09,70,313,41,16,47,062,42,07,44,262,46*70
$GPGSV,3,2,12,26,21,044,38,03,20,177,,30,17,253,37,04,06,036,36*70
$GPGSV,3,3,12,08,05,139,39,06,05,271,42,22,04,168,39,02,03,304,44*70
$GPRMC,233355.557,A,4347.9519,N,12038.8241,W,009.9,048.4,060118,,,A*7B
$GPVTG,048.4,T,,M,009.9,N,018.4,K,A*08
$GPGGA,233356.557,4347.9519,N,12038.8241,W,1,07,2.4,2144.2,M,-19.1,M,,0000*58
$GPGSA,A,3,07,16,09,23,26,30,06,,,,,,2.9,2.4,1.6*31
$GPGSV,3,1,12,23,72,106,35,09,70,313,35,16,47,062,41,07,44,262,40*74
$GPGSV,3,2,12,26,21,044,38,03,20,177,,30,17,253,41,04,06,036,38*7F
$GPGSV,3,3,12,08,05,139,34,06,05,271,39,22,04,168,37,02,03,304,40*7B
$GPRMC,233356.557,A,4347.9519,N,12038.8241,W,011.2,048.4,060118,,,A*7A
$GPVTG,048.4,T,,M,011.2,N,020.7,K,A*02
$GPGGA,233357.557,4347.9519,N,12038.8241,W,1,07,2.4,2144.2,M,-19.1,M,,0000*59
$GPGSA,A,3,07,16,09,23,26,30,06,,,,,,2.9,2.4,1.6*31
$GPGSV,3,1,12,23,72,106,43,09,70,313,39,16,47,062,41,07,44,262,37*79
$GPGSV,3,2,12,26,21,044,41,03,20,177,,30,17,253,39,04,06,036,42*73
$GPGSV,3,3,12,08,05,139,33,06,05,271,32,22,04,168,37,02,03,304,38*78
$GPRMC,233357.557,A,4347.9519,N,12038.8241,W,012.3,048.4,060118,,,A*79
$GPVTG,048.4,T,,M,012.3,N,022.8,K,A*0D
$GPGGA,233358.557,4347.9519,N,12038.8241,W,1,07,2.4,2144.2,M,-19.1,M,,0000*56
$GPGSA,A,3,07,16,09,23,26,30,06,,,,,,2.9,2.4,1.6*31
$GPGSV,3,1,12,23,72,106,38,09,70,313,36,16,47,062,40,07,44,262,38*74
$GPGSV,3,2,12,26,21,044,41,03,20,177,,30,17,253,33,04,06,036,41*7A
$GPGSV,3,3,12,08,05,139,33,06,05,271,37,22,04,168,33,02,03,304,39*78
$GPRMC,233358.557,A,4347.9519,N,12038.8241,W,008.8,048.4,060118,,,A*76
$GPVTG,048.4,T,,M,008.8,N,016.2,K,A*00
$GPGGA,233359.557,4347.9540,N,12038.8177,W,1,07,2.4,2158.6,M,-19.1,M,,0000*54
$GPGSA,A,3,07,16,09,23,26,30,06,,,,,,2.9,2.4,1.6*31
$GPGSV,3,1,12,23,72,106,34,09,70,313,38,16,47,062,37,07,44,262,37*79
$GPGSV,3,2,12,26,21,044,34,03,20,177,,30,17,253,40,04,06,036,39*73
$GPGSV,3,3,12,08,05,139,41,06,05,271,42,22,04,168,41,02,03,304,39*7A
$GPRMC,233359.557,A,4347.9540,N,12038.8177,W,006.4,038.2,060118,,,A*7E
$GPVTG,038.2,T,,M,006.4,N,011.8,K,A*0E
$GPGGA,233400.557,4347.9415,N,12038.7994,W,1,07,2.4,2184.8,M,-19.1,M,,0000*5B
$GPGSA,A,3,07,16,09,23,26,30,06,,,,,,2.9,2.4,1.6*31
$GPGSV,3,1,12,23,72,106,45,09,70,313,40,16,47,062,46,07,44,262,41*77
$GPGSV,3,2,12,26,21,044,39,03,20,177,,30,17,253,42,04,06,036,44*76
$GPGSV,3,3,12,08,05,139,39,06,05,271,34,22,04,168,39,02,03,304,31*73
$GPRMC,233400.557,A,4347.9415,N,12038.7994,W,008.5,064.4,060118,,,A*7E
$GPVTG,064.4,T,,M,008.5,N,015.7,K,A*05
$GPGGA,233401.557,4347.9483,N,12038.7927,W,1,07,2.4,2202.3,M,-19.1,M,,0000*5B
$GPGSA,A,3,07,16,09,23,26,30,06,,,,,,2.9,2.4,1.6*31
$GPGSV,3,1,12,23,72,106,41,09,70,313,40,16,47,062,35,07,44,262,46*70
$GPGSV,3,2,12,26,21,044,37,03,20,177,,30,17,253,46,04,06,036,36*79
$GPGSV,3,3,12,08,05,139,41,06,05,271,40,22,04,168,42,02,03,304,34*76
$GPRMC,233401.557,A,4347.9483,N,12038.7927,W,010.6,056.6,060118,,,A*71
$GPVTG,056.6,T,,M,010.6,N,019.6,K,A*01
$GPGGA,233402.557,4347.9503,N,12038.7862,W,1,07,2.4,2203.9,M,-19.1,M,,0000*5A
$GPGSA,A,3,07,16,09,23,26,30,06,,,,,,2.9,2.4,1.6*31
$GPGSV,3,1,12,23,71,107,40,09,70,313,41,16,47,062,33,07,44,262,32*77
$GPGSV,3,2,12,26,21,044,40,03,20,177,,30,17,253,40,04,06,036,38*71
$GPGSV,3,3,12,08,05,139,38,06,05,271,38,22,04,168,41,02,03,304,30*70
$GPRMC,233402.557,A,4347.9503,N,12038.7862,W,014.0,058.0,060118,,,A*71
$GPVTG,058.0,T,,M,014.0,N,025.9,K,A*0B
$GPGGA,233403.557,4347.9508,N,12038.7780,W,1,07,2.4,2203.3,M,-19.1,M,,0000*59
$GPGSA,A,3,07,16,09,23,26,30,06,,,,,,2.9,2.4,1.6*31
$GPGSV,3,1,12,23,71,107,39,09,70,313,39,16,47,062,36,07,44,262,41*77
$GPGSV,3,2,12,26,21,044,40,03,20,177,,30,17,253,42,04,06,036,42*7E
$GPGSV,3,3,12,08,05,139,33,06,05,271,42,22,04,168,40,02,03,304,38*7F
$GPRMC,233403.557,A,4347.9508,N,12038.7780,W,015.1,063.1,060118,,,A*71
$GPVTG,063.1,T,,M,015.1,N,027.9,K,A*00
$GPGGA,233404.557,4347.9443,N,12038.7662,W,1,07,2.4,2200.5,M,-19.1,M,,0000*58
$GPGSA,A,3,07,16,09,23,26,30,06,,,,,,2.9,2.4,1.6*31
$GPGSV,3,1,12,23,71,107,43,09,70,313,38,16,47,062,42,07,44,262,38*76
$GPGSV,3,2,12,26,21,044,41,03,20,177,,30,17,253,34,04,06,036,40*7C
$GPGSV,3,3,12,08,05,139,33,06,05,271,41,22,04,168,40,02,03,304,40*73
$GPRMC,233404.557,A,4347.9443,N,12038.7662,W,013.7,070.1,060118,,,A*77
$GPVTG,070.1,T,,M,013.7,N,025.4,K,A*0D
$GPGGA,233405.557,4347.9446,N,12038.7612,W,1,07,2.4,2194.6,M,-19.1,M,,0000*56
$GPGSA,A,3,07,16,09,23,26,30,06,,,,,,2.9,2.4,1.6*31
$GPGSV,3,1,12,23,71,107,38,09,70,313,38,16,47,062,35,07,44,262,40*75
$GPGSV,3,2,12,26,21,044,34,03,20,177,,30,17,253,36,04,06,036,37*7C
$GPGSV,3,3,12,08,05,139,32,06,05,271,33,22,04,168,34,02,03,304,41*75
$GPRMC,233405.557,A,4347.9446,N,12038.7612,W,011.4,068.8,060118,,,A*75
$GPVTG,068.8,T,,M,011.4,N,021.1,K,A*0D
$GPGGA,233406.557,4347.9484,N,12038.7577,W,1,07,2.4,2175.0,M,-19.1,M,,0000*52
$GPGSA,A,3,07,16,09,23,26,30,06,,,,,,2.9,2.4,1.6*31
$GPGSV,3,1,12,23,71,107,35,09,70,313,40,16,47,062,37,07,44,262,42*77
$GPGSV,3,2,12,26,21,044,43,03,20,177,,30,17,253,41,04,06,036,44*78
$GPGSV,3,3,12,08,05,139,42,06,05,271,34,22,04,168,33,02,03,304,40*73
$GPRMC,233406.557,A,4347.9484,N,12038.7577,W,011.4,057.9,060118,,,A*75
$GPVTG,057.9,T,,M,011.4,N,021.1,K,A*00
$GPGGA,233407.557,4347.9515,N,12038.7535,W,1,07,2.4,2156.6,M,-19.1,M,,0000*5B
$GPGSA,A,3,07,16,09,23,26,30,06,,,,,,2.9,2.4,1.6*31
$GPGSV,3,1,12,23,71,107,34,09,70,313,38,16,47,062,42,07,44,262,34*7A
$GPGSV,3,2,12,26,21,044,43,03,20,177,,30,17,253,38,04,06,036,41*73
$GPGSV,3,3,12,08,05,139,42,06,05,271,34,22,04,168,42,02,03,304,34*76
$GPRMC,233407.557,A,4347.9515,N,12038.7535,W,013.4,052.2,060118,,,A*77
$GPVTG,052.2,T,,M,013.4,N,024.9,K,A*01
$GPGGA,233408.557,4347.9547,N,12038.7488,W,1,07,2.4,2149.7,M,-19.1,M,,0000*5B
$GPGSA,A,3,07,16,09,23,26,30,06,,,,,,2.9,2.4,1.6*31
$GPGSV,3,1,12,23,71,107,39,09,70,313,41,16,47,062,31,07,44,262,38*71
$GPGSV,3,2,12,26,21,044,39,03,20,177,,30,17,253,38,04,06,036,42*7D
$GPGSV,3,3,12,08,05,139,37,06,05,271,35,22,04,168,31,02,03,304,38*7D
$GPRMC,233408.557,A,4347.9547,N,12038.7488,W,015.1,049.8,060118,,,A*7B
$GPVTG,049.8,T,,M,015.1,N,028.0,K,A*07
$GPGGA,233409.557,4347.9569,N,12038.7422,W,1,07,2.4,2141.1,M,-19.1,M,,0000*58
$GPGSA,A,3,07,16,09,23,26,30,06,,,,,,2.9,2.4,1.6*31
$GPGSV,3,1,12,23,71,107,42,09,70,313,47,16,47,062,41,07,44,262,46*75
$GPGSV,3,2,12,26,21,044,44,03,20,177,,30,18,253,35,04,06,036,40*77
$GPGSV,3,3,12,08,05,139,45,06,05,271,28,22,04,168,41,02,03,304,36*7D
$GPRMC,233409.557,A,4347.9569,N,12038.7422,W,017.0,052.7,060118,,,A*70
$GPVTG,052.7,T,,M,017.0,N,031.6,K,A*0F
$GPGGA,233410.557,4347.9585,N,12038.7348,W,1,07,2.4,2118.4,M,-19.1,M,,0000*50
$GPGSA,A,3,07,16,09,23,26,30,06,,,,,,2.9,2.4,1.6*31
$GPGSV,3,1,12,23,71,107,42,09,70,313,46,16,47,062,39,07,44,262,47*7A
$GPGSV,3,2,12,26,21,044,46,03,20,177,,30,18,253,36,04,06,036,40*76
$GPGSV,3,3,12,08,05,139,39,06,05,271,40,22,04,168,26,02,03,304,39*76
$GPRMC,233410.557,A,4347.9585,N,12038.7348,W,016.5,055.8,060118,,,A*7D
$GPVTG,055.8,T,,M,016.5,N,030.6,K,A*02
$GPGGA,233411.557,4347.9648,N,12038.7293,W,1,07,2.4,2112.5,M,-19.1,M,,0000*5F
$GPGSA,A,3,07,16,09,23,26,30,06,,,,,,2.9,2.4,1.6*31
$GPGSV,3,1,12,23,71,107,40,09,70,313,48,16,47,062,42,07,44,262,53*7F
$GPGSV,3,2,12,26,21,044,41,03,20,177,,30,18,253,46,04,06,036,40*76
$GPGSV,3,3,12,08,05,139,40,06,05,271,42,22,04,168,44,02,03,304,38*7F
$GPRMC,233411.557,A,4347.9648,N,12038.7293,W,015.0,057.2,060118,,,A*77
$GPVTG,057.2,T,,M,015.0,N,027.8,K,A*04
$GPGGA,233412.557,4347.9659,N,12038.7238,W,1,07,2.4,2103.9,M,-19.1,M,,0000*51
$GPGSA,A,3,07,16,09,23,26,30,06,,,,,,2.9,2.4,1.6*31
$GPGSV,3,1,12,23,71,107,34,09,70,313,39,16,47,062,42,07,44,262,43*7B
$GPGSV,3,2,12,26,21,044,44,03,20,177,,30,18,253,40,04,06,036,43*76
$GPGSV,3,3,12,08,05,139,36,06,05,271,33,22,04,168,37,02,03,304,33*77
$GPRMC,233412.557,A,4347.9659,N,12038.7238,W,013.5,059.5,060118,,,A*7F
$GPVTG,059.5,T,,M,013.5,N,024.9,K,A*0C
$GPGGA,233413.557,4347.9637,N,12038.7151,W,1,07,2.4,2093.2,M,-19.1,M,,0000*57
$GPGSA,A,3,07,16,09,23,26,30,06,,,,,,2.9,2.4,1.6*31
$GPGSV,3,1,12,23,71,107,42,09,70,313,34,16,47,062,47,07,44,262,45*74
$GPGSV,3,2,12,26,21,044,42,03,20,177,,30,18,253,36,04,06,036,41*73
$GPGSV,3,3,12,08,05,139,43,06,05,271,38,22,04,168,45,02,03,304,36*7E
$GPRMC,233413.557,A,4347.9637,N,12038.7151,W,013.1,066.3,060118,,,A*74
$GPVTG,066.3,T,,M,013.1,N,024.3,K,A*08
$GPGGA,233414.557,4347.9645,N,12038.7103,W,1,07,2.4,2080.7,M,-19.1,M,,0000*55
$GPGSA,A,3,07,16,09,23,26,30,06,,,,,,2.9,2.4,1.6*31
$GPGSV,3,1,12,23,71,107,33,09,70,313,37,16,47,062,40,07,44,262,39*7D
$GPGSV,3,2,12,26,21,044,40,03,20,177,,30,18,253,30,04,06,036,40*76
$GPGSV,3,3,12,08,05,139,35,06,05,271,37,22,04,168,33,02,03,304,40*70
$GPRMC,233414.557,A,4347.9645,N,12038.7103,W,011.9,065.9,060118,,,A*72
$GPVTG,065.9,T,,M,011.9,N,022.0,K,A*0E
$GPGGA,233415.557,4347.9648,N,12038.7057,W,1,07,2.4,2066.4,M,-19.1,M,,0000*52
$GPGSA,A,3,07,16,09,23,26,30,06,,,,,,2.9,2.4,1.6*31
$GPGSV,3,1,12,23,71,107,39,09,70,313,33,16,47,062,32,07,44,262,39*76
$GPGSV,3,2,12,26,21,044,39,03,20,177,,30,18,253,32,04,06,036,38*75
$GPGSV,3,3,12,08,05,139,28,06,05,271,25,22,04,168,41,02,03,304,28*74
$GPRMC,233415.557,A,4347.9648,N,12038.7057,W,011.4,064.8,060118,,,A*73
$GPVTG,064.8,T,,M,011.4,N,021.0,K,A*00
$GPGGA,233416.557,4347.9659,N,12038.7010,W,1,07,2.4,2050.7,M,-19.1,M,,0000*54
$GPGSA,A,3,07,16,09,23,26,30,06,,,,,,2.9,2.4,1.6*31
$GPGSV,3,1,12,23,71,107,33,09,70,313,38,16,47,062,44,07,44,262,41*79
$GPGSV,3,2,12,26,21,044,44,03,20,177,,30,18,253,33,04,06,036,44*75
$GPGSV,3,3,12,08,05,139,37,06,05,271,30,22,04,168,40,02,03,304,36*70
$GPRMC,233416.557,A,4347.9659,N,12038.7010,W,012.5,061.5,060118,,,A*79
$GPVTG,061.5,T,,M,012.5,N,023.2,K,A*0A
$GPGGA,233417.557,4347.9620,N,12038.6950,W,1,07,2.4,2033.5,M,-19.1,M,,0000*50
$GPGSA,A,3,07,16,09,23,26,30,06,,,,,,2.9,2.4,1.6*31
$GPGSV,3,1,12,23,71,107,46,09,70,313,48,16,47,062,43,07,44,262,47*7D
$GPGSV,3,2,12,26,21,044,41,03,20,177,,30,18,253,37,04,06,036,39*7E
$GPGSV,3,3,12,08,05,139,43,06,05,271,35,22,04,168,42,02,03,304,40*75
$GPRMC,233417.557,A,4347.9620,N,12038.6950,W,004.6,075.4,060118,,,A*7A
$GPVTG,075.4,T,,M,004.6,N,008.4,K,A*05
$GPGGA,233418.557,4347.9622,N,12038.6934,W,1,07,2.4,2016.0,M,-19.1,M,,0000*5D
$GPGSA,A,3,07,16,09,23,26,30,06,,,,,,2.9,2.4,1.6*31
$GPGSV,3,1,12,23,71,107,44,09,70,313,47,16,47,062,41,07,44,262,39*7B
$GPGSV,3,2,12,26,21,044,40,03,20,177,,30,18,253,42,04,06,036,37*73
$GPGSV,3,3,12,08,05,139,33,06,05,271,42,22,04,168,34,02,03,304,42*71
$GPRMC,233418.557,A,4347.9622,N,12038.6934,W,001.6,030.6,060118,,,A*73
$GPVTG,030.6,T,,M,001.6,N,002.9,K,A*04
$GPGGA,233419.557,4347.9618,N,12038.6927,W,1,07,2.4,1997.8,M,-19.1,M,,0000*5C
$GPGSA,A,3,07,16,09,23,26,30,06,,,,,,2.9,2.4,1.6*31
$GPGSV,3,1,12,23,71,107,42,09,70,313,39,16,47,062,32,07,44,262,45*7B
$GPGSV,3,2,12,26,21,044,38,03,20,177,,30,18,253,39,04,06,036,41*71
$GPGSV,3,3,12,08,05,139,39,06,05,271,38,22,04,168,34,02,03,304,38*7B
$GPRMC,233419.557,A,4347.9618,N,12038.6927,W,000.0,030.6,060118,,,A*7E
$GPVTG,030.6,T,,M,000.0,N,000.0,K,A*08
$GPGGA,233420.557,4347.9614,N,12038.6924,W,1,07,2.4,1983.3,M,-19.1,M,,0000*57
$GPGSA,A,3,07,16,09,23,26,30,06,,,,,,2.9,2.4,1.6*31
$GPGSV,3,1,12,23,71,107,38,09,70,314,40,16,47,062,44,07,44,262,43*78
$GPGSV,3,2,12,26,21,044,47,03,20,177,,30,18,253,39,04,06,036,41*79
$GPGSV,3,3,12,08,05,139,40,06,05,271,38,22,04,168,39,02,03,304,36*76
$GPRMC,233420.557,A,4347.9614,N,12038.6924,W,003.1,106.8,060118,,,A*73
$GPVTG,106.8,T,,M,003.1,N,005.7,K,A*02
$GPGGA,233421.557,4347.9612,N,12038.6922,W,1,07,2.4,1977.5,M,-19.1,M,,0000*5B
$GPGSA,A,3,07,16,09,23,26,30,06,,,,,,2.9,2.4,1.6*31
$GPGSV,3,1,12,23,71,107,39,09,70,314,35,16,47,062,40,07,44,262,41*7D
$GPGSV,3,2,12,26,21,044,45,03,20,177,,30,18,253,37,04,06,036,44*70
$GPGSV,3,3,12,08,05,139,39,06,05,271,36,22,04,168,44,02,03,304,37*7D
$GPRMC,233421.557,A,4347.9612,N,12038.6922,W,005.8,100.5,060118,,,A*76
$GPVTG,100.5,T,,M,005.8,N,010.7,K,A*02
$GPGGA,233422.557,4347.9608,N,12038.6888,W,1,07,2.4,1970.1,M,-19.1,M,,0000*51
$GPGSA,A,3,07,16,09,23,26,30,06,,,,,,2.9,2.4,1.6*31
$GPGSV,3,1,12,23,71,107,38,09,70,314,39,16,47,062,39,07,44,262,46*79
$GPGSV,3,2,12,26,21,044,40,03,20,177,,30,18,253,41,04,06,036,39*7E
$GPGSV,3,3,12,08,05,139,41,06,05,271,38,22,04,168,37,02,03,304,31*7E
$GPRMC,233422.557,A,4347.9608,N,12038.6888,W,007.8,093.2,060118,,,A*71
$GPVTG,093.2,T,,M,007.8,N,014.5,K,A*0A
$GPGGA,233423.557,4347.9613,N,12038.6856,W,1,07,2.4,1925.7,M,-19.1,M,,0000*5F
$GPGSA,A,3,07,16,09,23,26,30,06,,,,,,2.9,2.4,1.6*31
$GPGSV,3,1,12,23,71,107,29,09,70,314,33,16,47,062,33,07,44,262,39*71
$GPGSV,3,2,12,26,21,044,37,03,20,177,,30,18,253,37,04,06,036,39*7F
$GPGSV,3,3,12,08,05,139,43,06,05,271,30,22,04,168,37,02,03,304,40*72
$GPRMC,233423.557,A,4347.9613,N,12038.6856,W,008.3,083.5,060118,,,A*7B
$GPVTG,083.5,T,,M,008.3,N,015.4,K,A*08
$GPGGA,233424.557,4347.9625,N,12038.6829,W,1,07,2.4,1912.1,M,-19.1,M,,0000*57
$GPGSA,A,3,07,16,09,23,26,30,06,,,,,,2.9,2.4,1.6*31
$GPGSV,3,1,12,23,71,107,39,09,70,314,41,16,47,062,31,07,44,262,46*7F
$GPGSV,3,2,12,26,21,044,33,03,20,177,,30,18,253,40,04,06,036,34*76
$GPGSV,3,3,12,08,05,139,34,06,05,271,38,22,04,168,35,02,03,304,45*7D
$GPRMC,233424.557,A,4347.9625,N,12038.6829,W,008.9,066.5,060118,,,A*70
$GPVTG,066.5,T,,M,008.9,N,016.5,K,A*0B
$GPGGA,233425.557,4347.9651,N,12038.6798,W,1,07,2.4,1896.5,M,-19.1,M,,0000*59
$GPGSA,A,3,07,16,09,23,26,30,06,,,,,,2.9,2.4,1.6*31
$GPGSV,3,1,12,23,71,107,38,09,70,314,38,16,47,062,40,07,44,262,38*7F
$GPGSV,3,2,12,26,21,044,45,03,20,177,,30,18,253,39,04,06,036,42*78
$GPGSV,3,3,12,08,05,139,41,06,05,271,29,22,04,168,39,02,03,304,36*77
$GPRMC,233425.557,A,4347.9651,N,12038.6798,W,009.4,056.5,060118,,,A*78
$GPVTG,056.5,T,,M,009.4,N,017.3,K,A*03
$GPGGA,233426.557,4347.9678,N,12038.6785,W,1,07,2.4,1879.0,M,-19.1,M,,0000*59
$GPGSA,A,3,07,16,09,23,26,30,06,,,,,,2.9,2.4,1.6*31
$GPGSV,3,1,12,23,71,107,44,09,70,314,41,16,47,062,42,07,44,262,38*78
$GPGSV,3,2,12,26,21,044,44,03,20,177,,30,18,253,39,04,06,036,37*7B
$GPGSV,3,3,12,08,05,139,37,06,05,271,38,22,04,168,41,02,03,304,36*79
$GPRMC,233426.557,A,4347.9678,N,12038.6785,W,009.1,029.7,060118,,,A*73
$GPVTG,029.7,T,,M,009.1,N,016.9,K,A*07
$GPGGA,233427.557,4347.9695,N,12038.6778,W,1,07,2.4,1860.5,M,-19.1,M,,0000*54
$GPGSA,A,3,07,16,09,23,26,30,06,,,,,,2.9,2.4,1.6*31
$GPGSV,3,1,12,23,71,107,32,09,70,314,37,16,47,062,32,07,44,262,37*70
$GPGSV,3,2,12,26,21,044,36,03,20,177,,30,18,253,38,04,06,036,36*7E
$GPGSV,3,3,12,08,05,139,33,06,05,271,41,22,04,168,34,02,03,304,43*73
$GPRMC,233427.557,A,4347.9695,N,12038.6778,W,009.1,014.9,060118,,,A*73
$GPVTG,014.9,T,,M,009.1,N,016.8,K,A*06
$GPGGA,233428.557,4347.9713,N,12038.6767,W,1,07,2.4,1841.1,M,-19.1,M,,0000*5D
$GPGSA,A,3,07,16,09,23,26,30,06,,,,,,2.9,2.4,1.6*31
$GPGSV,3,1,12,23,71,107,33,09,70,314,39,16,47,062,37,07,44,262,46*7C
$GPGSV,3,2,12,26,21,044,38,03,20,177,,30,18,253,33,04,06,036,41*7B
$GPGSV,3,3,12,08,05,139,34,06,05,271,32,22,04,168,44,02,03,304,36*75
$GPRMC,233428.557,A,4347.9713,N,12038.6767,W,009.0,011.9,060118,,,A*79
$GPVTG,011.9,T,,M,009.0,N,016.7,K,A*0D
$GPGGA,233429.557,4347.9729,N,12038.6759,W,1,07,2.4,1821.0,M,-19.1,M,,0000*5F
$GPGSA,A,3,07,16,09,23,26,30,06,,,,,,2.9,2.4,1.6*31
$GPGSV,3,1,12,23,71,107,40,09,70,314,41,16,47,062,38,07,44,262,46*78
$GPGSV,3,2,12,26,21,044,40,03,20,177,,30,18,253,47,04,06,036,37*76
$GPGSV,3,3,12,08,05,139,40,06,05,271,37,22,04,168,40,02,03,304,38*79
$GPRMC,233429.557,A,4347.9729,N,12038.6759,W,007.4,009.7,060118,,,A*71
$GPVTG,009.7,T,,M,007.4,N,013.7,K,A*05
$GPGGA,233430.557,4347.9745,N,12038.6751,W,1,07,2.4,1800.4,M,-19.1,M,,0000*52
$GPGSA,A,3,07,16,09,23,26,30,06,,,,,,2.9,2.4,1.6*31
$GPGSV,3,1,12,23,71,107,32,09,70,314,40,16,47,062,31,07,44,262,40*73
$GPGSV,3,2,12,26,21,044,36,03,20,177,,30,18,253,33,04,06,036,39*7A
$GPGSV,3,3,12,08,05,139,40,06,05,271,33,22,04,168,37,02,03,304,39*7C
$GPRMC,233430.557,A,4347.9745,N,12038.6751,W,006.8,016.1,060118,,,A*7E
$GPVTG,016.1,T,,M,006.8,N,012.5,K,A*03
$GPGGA,233431.557,4347.9756,N,12038.6739,W,1,07,2.4,1779.4,M,-19.1,M,,0000*5E
$GPGSA,A,3,07,16,09,23,26,30,06,,,,,,2.9,2.4,1.6*31
$GPGSV,3,1,12,23,71,107,41,09,70,314,42,16,47,062,46,07,44,262,40*75
$GPGSV,3,2,12,26,21,044,35,03,20,177,,30,18,253,36,04,06,036,32*77
$GPGSV,3,3,12,08,05,139,40,06,05,271,40,22,04,168,38,02,03,304,40*79
$GPRMC,233431.557,A,4347.9756,N,12038.6739,W,007.4,013.3,060118,,,A*79
$GPVTG,013.3,T,,M,007.4,N,013.6,K,A*0B
$GPGGA,233432.557,4347.9775,N,12038.6735,W,1,07,2.4,1758.0,M,-19.1,M,,0000*57
$GPGSA,A,3,07,16,09,23,26,30,06,,,,,,2.9,2.4,1.6*31
$GPGSV,3,1,12,23,71,107,33,09,70,314,35,16,47,062,32,07,44,262,40*73
$GPGSV,3,2,12,26,21,044,41,03,20,177,,30,18,253,34,04,06,036,40*73
$GPGSV,3,3,12,08,05,139,41,06,05,271,37,22,04,168,35,02,03,304,43*76
$GPRMC,233432.557,A,4347.9775,N,12038.6735,W,008.0,001.7,060118,,,A*7B
$GPVTG,001.7,T,,M,008.0,N,014.8,K,A*0E
$GPGGA,233433.557,4347.9789,N,12038.6739,W,1,07,2.4,1736.5,M,-19.1,M,,0000*54
$GPGSA,A,3,07,16,09,23,26,30,06,,,,,,2.9,2.4,1.6*31
$GPGSV,3,1,12,23,71,107,42,09,70,314,30,16,47,062,37,07,44,262,41*74
$GPGSV,3,2,12,26,21,044,41,03,20,177,,30,18,253,34,04,06,036,41*72
$GPGSV,3,3,12,08,05,139,37,06,05,271,39,22,04,168,38,02,03,304,41*76
$GPRMC,233433.557,A,4347.9789,N,12038.6739,W,005.4,340.4,060118,,,A*79
$GPVTG,340.4,T,,M,005.4,N,009.9,K,A*0F
$GPGGA,233434.557,4347.9796,N,12038.6749,W,1,07,2.4,1714.9,M,-19.1,M,,0000*56
$GPGSA,A,3,07,16,09,23,26,30,06,,,,,,2.9,2.4,1.6*31
$GPGSV,3,1,12,23,71,107,33,09,70,314,34,16,47,062,35,07,44,262,45*70
$GPGSV,3,2,12,26,21,044,37,03,20,177,,30,18,253,45,04,06,036,38*7B
$GPGSV,3,3,12,08,05,139,41,06,05,271,41,22,04,168,45,02,03,304,41*72
$GPRMC,233434.557,A,4347.9796,N,12038.6749,W,005.1,324.7,060118,,,A*73
$GPVTG,324.7,T,,M,005.1,N,009.4,K,A*06
$GPGGA,233435.557,4347.9806,N,12038.6761,W,1,07,2.4,1693.2,M,-19.1,M,,0000*5E
$GPGSA,A,3,07,16,09,23,26,30,06,,,,,,2.9,2.4,1.6*31
$GPGSV,3,1,12,23,71,107,34,09,70,314,32,16,47,062,31,07,44,262,37*70
$GPGSV,3,2,12,26,21,044,38,03,20,177,,30,18,253,41,04,06,036,42*7D
$GPGSV,3,3,12,08,05,139,41,06,05,271,46,22,04,168,41,02,03,304,42*72
$GPRMC,233435.557,A,4347.9806,N,12038.6761,W,005.2,318.3,060118,,,A*76
$GPVTG,318.3,T,,M,005.2,N,009.6,K,A*0C
$GPGGA,233436.557,4347.9820,N,12038.6770,W,1,07,2.4,1671.3,M,-19.1,M,,0000*54
$GPGSA,A,3,07,16,09,23,26,30,06,,,,,,2.9,2.4,1.6*31
$GPGSV,3,1,12,23,71,107,38,09,70,314,40,16,47,062,41,07,44,262,45*7B
$GPGSV,3,2,12,26,21,044,32,03,20,177,,30,18,253,40,04,06,036,38*7B
$GPGSV,3,3,12,08,05,139,32,06,05,271,45,22,04,168,36,02,03,304,40*77
$GPRMC,233436.557,A,4347.9820,N,12038.6770,W,005.3,339.5,060118,,,A*75
$GPVTG,339.5,T,,M,005.3,N,009.8,K,A*06
$GPGGA,233437.557,4347.9835,N,12038.6770,W,1,07,2.4,1649.2,M,-19.1,M,,0000*5B
$GPGSA,A,3,07,16,09,23,26,30,06,,,,,,2.9,2.4,1.6*31
$GPGSV,3,1,12,23,71,107,35,09,70,314,39,16,47,062,38,07,44,262,44*77
$GPGSV,3,2,12,26,21,044,42,03,20,177,,30,18,253,36,04,06,036,42*70
$GPGSV,3,3,12,08,05,139,40,06,05,271,33,22,04,168,38,02,03,304,39*73
$GPRMC,233437.557,A,4347.9835,N,12038.6770,W,005.6,359.4,060118,,,A*72
$GPVTG,359.4,T,,M,005.6,N,010.3,K,A*07
$GPGGA,233438.557,4347.9867,N,12038.6780,W,1,07,2.4,1627.9,M,-19.1,M,,0000*5F
$GPGSA,A,3,07,16,09,23,26,30,06,,,,,,2.9,2.4,1.6*31
$GPGSV,3,1,12,23,71,107,37,09,70,314,40,16,47,062,36,07,44,262,48*79
$GPGSV,3,2,12,26,21,044,40,03,20,177,,30,18,253,42,04,06,036,38*7C
$GPGSV,3,3,12,08,05,139,33,06,05,271,42,22,04,168,31,02,03,304,37*76
$GPRMC,233438.557,A,4347.9867,N,12038.6780,W,007.1,347.1,060118,,,A*7A
$GPVTG,347.1,T,,M,007.1,N,013.2,K,A*0A
$GPGGA,233439.557,4347.9882,N,12038.6794,W,1,07,2.4,1607.9,M,-19.1,M,,0000*52
$GPGSA,A,3,07,16,09,23,26,30,06,,,,,,2.9,2.4,1.6*31
$GPGSV,3,1,12,23,71,107,38,09,70,314,38,16,47,062,39,07,44,262,40*7E
$GPGSV,3,2,12,26,21,044,41,03,20,177,,30,18,253,38,04,06,036,38*70
$GPGSV,3,3,12,08,05,139,37,06,05,271,40,22,04,168,39,02,03,304,40*78
$GPRMC,233439.557,A,4347.9882,N,12038.6794,W,005.6,318.7,060118,,,A*7C
$GPVTG,318.7,T,,M,005.6,N,010.4,K,A*06
$GPGGA,233440.557,4347.9896,N,12038.6809,W,1,07,2.4,1589.9,M,-19.1,M,,0000*57
$GPGSA,A,3,07,16,09,23,26,30,06,,,,,,2.9,2.4,1.6*31
$GPGSV,3,1,12,23,71,107,39,09,70,314,40,16,47,062,38,07,44,262,41*70
$GPGSV,3,2,12,26,21,044,31,03,20,177,,30,18,253,39,04,06,036,35*7B
$GPGSV,3,3,12,08,05,139,35,06,05,271,35,22,04,168,39,02,03,304,38*77
$GPRMC,233440.557,A,4347.9896,N,12038.6809,W,004.4,302.9,060118,,,A*7A
$GPVTG,302.9,T,,M,004.4,N,008.1,K,A*0C
$GPGGA,233441.557,4347.9904,N,12038.6827,W,1,07,2.4,1581.7,M,-19.1,M,,0000*56
$GPGSA,A,3,07,16,09,23,26,30,06,,,,,,2.9,2.4,1.6*31
$GPGSV,3,1,12,23,71,107,37,09,70,314,39,16,47,062,38,07,44,262,41*70
$GPGSV,3,2,12,26,21,044,39,03,20,177,,30,18,253,38,04,06,036,40*70
$GPGSV,3,3,12,08,05,139,40,06,05,271,40,22,04,168,44,02,03,304,40*72
$GPRMC,233441.557,A,4347.9904,N,12038.6827,W,004.4,303.4,060118,,,A*71
$GPVTG,303.4,T,,M,004.4,N,008.1,K,A*00
$GPGGA,233442.557,4347.9906,N,12038.6830,W,1,07,2.4,1540.6,M,-19.1,M,,0000*5D
$GPGSA,A,3,07,16,09,23,26,30,06,,,,,,2.9,2.4,1.6*31
$GPGSV,3,1,12,23,71,107,39,09,70,314,41,16,47,062,42,07,44,262,45*78
$GPGSV,3,2,12,26,21,044,46,03,20,177,,30,18,253,39,04,06,036,40*79
$GPGSV,3,3,12,08,05,139,34,06,05,271,37,22,04,168,34,02,03,304,41*77
$GPRMC,233442.557,A,4347.9906,N,12038.6830,W,002.5,342.3,060118,,,A*73
$GPVTG,342.3,T,,M,002.5,N,004.7,K,A*0F
$GPGGA,233443.557,4347.9901,N,12038.6827,W,1,07,2.4,1530.8,M,-19.1,M,,0000*54
$GPGSA,A,3,07,16,09,23,26,30,06,,,,,,2.9,2.4,1.6*31
$GPGSV,3,1,12,23,71,107,35,09,70,314,40,16,47,062,35,07,44,262,44*74
$GPGSV,3,2,12,26,21,044,38,03,20,177,,30,18,253,39,04,06,036,39*7E
$GPGSV,3,3,12,08,05,139,30,06,05,271,39,22,04,168,37,02,03,304,44*7B
$GPRMC,233443.557,A,4347.9901,N,12038.6827,W,001.1,313.2,060118,,,A*71
$GPVTG,313.2,T,,M,001.1,N,002.1,K,A*0D
$GPGGA,233444.557,4347.9895,N,12038.6838,W,1,07,2.4,1521.5,M,-19.1,M,,0000*5C
$GPGSA,A,3,07,16,09,23,26,30,06,,,,,,2.9,2.4,1.6*31
$GPGSV,3,1,12,23,71,107,39,09,70,314,38,16,47,062,40,07,44,262,39*7F
$GPGSV,3,2,12,26,21,044,39,03,20,177,,30,18,253,40,04,06,036,38*70
$GPGSV,3,3,12,08,05,139,35,06,05,271,39,22,04,168,42,02,03,304,38*77
$GPRMC,233444.557,A,4347.9895,N,12038.6838,W,004.3,259.7,060118,,,A*79
$GPVTG,259.7,T,,M,004.3,N,007.9,K,A*0D
$GPGGA,233445.557,4347.9890,N,12038.6864,W,1,07,2.4,1513.0,M,-19.1,M,,0000*55
$GPGSA,A,3,07,16,09,23,26,30,06,,,,,,2.9,2.4,1.6*31
$GPGSV,3,1,12,23,71,107,37,09,70,314,43,16,47,062,37,07,44,262,34*70
$GPGSV,3,2,12,26,21,044,47,03,20,177,,30,18,253,39,04,06,036,40*78
$GPGSV,3,3,12,08,05,139,37,06,05,271,29,22,04,168,36,02,03,304,30*7F
$GPRMC,233445.557,A,4347.9890,N,12038.6864,W,004.7,295.1,060118,,,A*76
$GPVTG,295.1,T,,M,004.7,N,008.6,K,A*0F
$GPGGA,233446.557,4347.9901,N,12038.6882,W,1,07,2.4,1504.4,M,-19.1,M,,0000*55
$GPGSA,A,3,07,16,09,23,26,30,06,,,,,,2.9,2.4,1.6*31
$GPGSV,3,1,12,23,71,107,38,09,70,314,38,16,47,062,39,07,44,262,40*7E
$GPGSV,3,2,12,26,21,044,34,03,20,177,,30,18,253,38,04,06,036,39*73
$GPGSV,3,3,12,08,05,139,36,06,05,271,41,22,04,168,34,02,03,304,38*7A
$GPRMC,233446.557,A,4347.9901,N,12038.6882,W,005.0,312.2,060118,,,A*7F
$GPVTG,312.2,T,,M,005.0,N,009.3,K,A*00
$GPGGA,233447.557,4347.9914,N,12038.6896,W,1,07,2.4,1495.8,M,-19.1,M,,0000*50
$GPGSA,A,3,07,16,09,23,26,30,06,,,,,,2.9,2.4,1.6*31
$GPGSV,3,1,12,23,71,107,25,09,70,314,39,16,47,062,35,07,44,262,44*7B
$GPGSV,3,2,12,26,21,044,38,03,20,177,,30,18,253,39,04,06,036,39*7E
$GPGSV,3,3,12,08,05,139,31,06,05,271,39,22,04,168,31,02,03,304,44*7C
$GPRMC,233447.557,A,4347.9914,N,12038.6896,W,005.1,319.6,060118,,,A*71
$GPVTG,319.6,T,,M,005.1,N,009.5,K,A*08
$GPGGA,233448.557,4347.9926,N,12038.6911,W,1,07,2.4,1487.3,M,-19.1,M,,0000*58
$GPGSA,A,3,07,16,09,23,26,30,06,,,,,,2.9,2.4,1.6*31
$GPGSV,3,1,12,23,71,107,36,09,70,314,38,16,47,062,34,07,44,262,43*7E
$GPGSV,3,2,12,26,21,044,40,03,20,177,,30,18,253,31,04,06,036,43*74
$GPGSV,3,3,12,08,05,139,32,06,05,271,37,22,04,168,31,02,03,304,40*75
$GPRMC,233448.557,A,4347.9926,N,12038.6911,W,006.3,316.2,060118,,,A*7B
$GPVTG,316.2,T,,M,006.3,N,011.6,K,A*08
$GPGGA,233449.557,4347.9936,N,12038.6924,W,1,07,2.4,1478.8,M,-19.1,M,,0000*55
$GPGSA,A,3,07,16,09,23,26,30,06,,,,,,2.9,2.4,1.6*31
$GPGSV,3,1,12,23,71,107,40,09,70,314,38,16,47,062,41,07,44,262,35*7C
$GPGSV,3,2,12,26,21,044,41,03,20,177,,30,18,253,39,04,06,036,38*71
$GPGSV,3,3,12,08,05,139,43,06,05,270,34,22,04,168,41,02,03,304,34*75
$GPRMC,233449.557,A,4347.9936,N,12038.6924,W,006.4,325.7,060118,,,A*7F
$GPVTG,325.7,T,,M,006.4,N,011.9,K,A*05
$GPGGA,233450.557,4347.9952,N,12038.6939,W,1,07,2.4,1470.6,M,-19.1,M,,0000*55
$GPGSA,A,3,07,16,09,23,26,30,06,,,,,,2.9,2.4,1.6*31
$GPGSV,3,1,12,23,71,107,40,09,70,314,39,16,47,062,42,07,44,262,37*7C
$GPGSV,3,2,12,26,21,044,39,03,20,177,,30,18,253,39,04,06,036,39*7F
$GPGSV,3,3,12,08,05,139,43,06,05,270,31,22,04,168,43,02,03,304,34*72
$GPRMC,233450.557,A,4347.9952,N,12038.6939,W,007.7,319.5,060118,,,A*76
$GPVTG,319.5,T,,M,007.7,N,014.2,K,A*04
$GPGGA,233451.557,4347.9958,N,12038.6948,W,1,07,2.4,1462.5,M,-19.1,M,,0000*58
$GPGSA,A,3,07,16,09,23,26,30,06,,,,,,2.9,2.4,1.6*31
$GPGSV,3,1,12,23,71,107,43,09,70,314,34,16,47,062,41,07,44,262,40*71
$GPGSV,3,2,12,26,21,044,40,03,20,177,,30,18,253,37,04,06,036,32*74
$GPGSV,3,3,12,08,05,139,38,06,05,270,38,22,04,168,45,02,03,304,36*73
$GPRMC,233451.557,A,4347.9958,N,12038.6948,W,006.9,313.5,060118,,,A*7E
$GPVTG,313.5,T,,M,006.9,N,012.8,K,A*0D
$GPGGA,233452.557,4347.9968,N,12038.6960,W,1,07,2.4,1454.3,M,-19.1,M,,0000*51
$GPGSA,A,3,07,16,09,23,26,30,06,,,,,,2.9,2.4,1.6*31
$GPGSV,3,1,12,23,71,107,40,09,70,314,43,16,47,062,36,07,44,262,41*73
$GPGSV,3,2,12,26,21,044,42,03,20,177,,30,18,253,40,04,06,036,38*7C
$GPGSV,3,3,12,08,05,139,34,06,05,270,31,22,04,168,34,02,03,304,28*7F
$GPRMC,233452.557,A,4347.9968,N,12038.6960,W,006.0,322.1,060118,,,A*7B
$GPVTG,322.1,T,,M,006.0,N,011.1,K,A*08
$GPGGA,233453.557,4347.9985,N,12038.6976,W,1,07,2.4,1446.2,M,-19.1,M,,0000*56
$GPGSA,A,3,07,16,09,23,26,30,06,,,,,,2.9,2.4,1.6*31
$GPGSV,3,1,12,23,71,107,42,09,70,314,39,16,47,062,39,07,44,262,41*73
$GPGSV,3,2,12,26,21,044,38,03,20,177,,30,18,253,38,04,06,036,41*70
$GPGSV,3,3,12,08,05,139,40,06,05,270,34,22,04,168,41,02,03,304,34*76
$GPRMC,233453.557,A,4347.9985,N,12038.6976,W,008.1,321.3,060118,,,A*70
$GPVTG,321.3,T,,M,008.1,N,014.9,K,A*0B
$GPGGA,233454.557,4347.9996,N,12038.6992,W,1,07,2.4,1438.1,M,-19.1,M,,0000*53
$GPGSA,A,3,07,16,09,23,26,30,06,,,,,,2.9,2.4,1.6*31
$GPGSV,3,1,12,23,71,107,34,09,70,314,33,16,47,062,38,07,44,262,46*7E
$GPGSV,3,2,12,26,21,044,37,03,20,177,,30,18,253,40,04,06,036,37*71
$GPGSV,3,3,12,08,05,139,28,06,05,270,41,22,04,168,32,02,03,304,40*7D
$GPRMC,233454.557,A,4347.9996,N,12038.6992,W,006.8,317.7,060118,,,A*79
$GPVTG,317.7,T,,M,006.8,N,012.6,K,A*04
$GPGGA,233455.557,4348.0006,N,12038.7007,W,1,07,2.4,1429.9,M,-19.1,M,,0000*58
$GPGSA,A,3,07,16,09,23,26,30,06,,,,,,2.9,2.4,1.6*31
$GPGSV,3,1,12,23,71,107,39,09,70,314,41,16,47,062,39,07,44,262,41*70
$GPGSV,3,2,12,26,21,044,39,03,20,177,,30,18,253,39,04,06,036,34*72
$GPGSV,3,3,12,08,05,139,36,06,05,270,41,22,04,168,40,02,03,304,37*77
$GPRMC,233455.557,A,4348.0006,N,12038.7007,W,011.6,316.1,060118,,,A*75
$GPVTG,316.1,T,,M,011.6,N,021.6,K,A*0B
$GPGGA,233456.557,4348.0021,N,12038.7022,W,1,07,2.4,1421.7,M,-19.1,M,,0000*5F
$GPGSA,A,3,07,16,09,23,26,30,06,,,,,,2.9,2.4,1.6*31
$GPGSV,3,1,12,23,71,107,41,09,70,314,35,16,47,062,40,07,44,262,38*7C
$GPGSV,3,2,12,26,21,044,40,03,20,177,,30,18,253,37,04,06,036,35*73
$GPGSV,3,3,12,08,05,139,38,06,05,270,34,22,04,168,40,02,03,304,33*7F
$GPRMC,233456.557,A,4348.0021,N,12038.7022,W,006.1,319.2,060118,,,A*79
$GPVTG,319.2,T,,M,006.1,N,011.3,K,A*00
$GPGGA,233457.557,4348.0040,N,12038.7042,W,1,07,2.4,1413.8,M,-19.1,M,,0000*51
$GPGSA,A,3,07,16,09,23,26,30,06,,,,,,2.9,2.4,1.6*31
$GPGSV,3,1,12,23,71,107,36,09,70,314,32,16,47,062,41,07,44,262,39*7B
$GPGSV,3,2,12,26,21,044,37,03,20,177,,30,18,253,37,04,06,036,25*72
$GPGSV,3,3,12,08,05,139,24,06,05,270,25,22,04,168,24,02,03,304,24*76
$GPRMC,233457.557,A,4348.0040,N,12038.7042,W,006.1,319.7,060118,,,A*7C
$GPVTG,319.7,T,,M,006.1,N,011.3,K,A*05
$GPGGA,233458.557,4348.0050,N,12038.7052,W,1,07,2.4,1407.4,M,-19.1,M,,0000*57
$GPGSA,A,3,07,16,09,23,26,30,06,,,,,,2.9,2.4,1.6*31
$GPGSV,3,1,12,23,71,107,39,09,70,314,38,16,47,062,41,07,44,262,43*73
$GPGSV,3,2,12,26,21,044,37,03,20,177,,30,18,253,36,04,06,036,26*70
$GPGSV,3,3,12,08,05,139,24,06,05,270,25,22,04,168,23,02,03,304,23*76
$GPRMC,233458.557,A,4348.0050,N,12038.7052,W,003.1,338.0,060118,,,A*72
$GPVTG,338.0,T,,M,003.1,N,005.8,K,A*0A
$GPGGA,233459.557,4348.0051,N,12038.7051,W,1,07,2.4,1402.2,M,-19.1,M,,0000*57
$GPGSA,A,3,07,16,09,23,26,30,06,,,,,,2.9,2.4,1.6*31
$GPGSV,3,1,12,23,71,107,39,09,70,314,37,16,47,062,41,07,44,262,43*7C
$GPGSV,3,2,12,26,21,044,38,03,20,177,,30,18,253,36,04,06,036,27*7E
$GPGSV,3,3,12,08,05,139,24,06,05,270,25,22,04,168,23,02,03,304,23*76
$GPRMC,233459.557,A,4348.0051,N,12038.7051,W,001.4,349.9,060118,,,A*79
$GPVTG,349.9,T,,M,001.4,N,002.7,K,A*0A
$GPGGA,233500.557,4348.0050,N,12038.7049,W,1,07,2.4,1397.9,M,-19.1,M,,0000*52
$GPGSA,A,3,07,16,09,23,26,30,06,,,,,,2.9,2.4,1.6*31
$GPGSV,3,1,12,23,71,107,39,09,70,314,38,16,47,062,41,07,44,262,43*73
$GPGSV,3,2,12,26,21,044,38,03,20,177,,30,18,253,36,04,06,036,26*7F
$GPGSV,3,3,12,08,05,139,25,06,05,270,25,22,04,168,23,02,03,304,23*77
$GPRMC,233500.557,A,4348.0050,N,12038.7049,W,000.0,349.9,060118,,,A*79
$GPVTG,349.9,T,,M,000.0,N,000.0,K,A*0A
$GPGGA,233501.557,4348.0046,N,12038.7046,W,1,07,2.4,1394.7,M,-19.1,M,,0000*56
$GPGSA,A,3,07,16,09,23,26,30,06,,,,,,2.9,2.4,1.6*31
$GPGSV,3,1,12,23,71,107,39,09,70,314,37,16,47,062,41,07,44,262,43*7C
$GPGSV,3,2,12,26,21,044,38,03,20,177,,30,18,253,37,04,06,036,27*7F
$GPGSV,3,3,12,08,05,139,25,06,05,270,25,22,04,168,23,02,03,304,23*77
$GPRMC,233501.557,A,4348.0046,N,12038.7046,W,000.0,349.9,060118,,,A*70
$GPVTG,349.9,T,,M,000.0,N,000.0,K,A*0A
$GPGGA,233502.557,4348.0045,N,12038.7044,W,1,07,2.4,1392.1,M,-19.1,M,,0000*54
$GPGSA,A,3,07,16,09,23,26,30,06,,,,,,2.9,2.4,1.6*31
$GPGSV,3,1,12,23,71,107,39,09,70,314,38,16,47,062,41,07,44,262,43*73
$GPGSV,3,2,12,26,21,044,38,03,20,177,,30,18,253,36,04,06,036,27*7E
$GPGSV,3,3,12,08,05,139,25,06,05,270,26,22,04,168,22,02,03,304,23*75
$GPRMC,233502.557,A,4348.0045,N,12038.7044,W,000.0,349.9,060118,,,A*72
$GPVTG,349.9,T,,M,000.0,N,000.0,K,A*0A
$GPGGA,233503.557,4348.0043,N,12038.7043,W,1,07,2.4,1390.1,M,-19.1,M,,0000*56
$GPGSA,A,3,07,16,09,23,26,30,06,,,,,,2.9,2.4,1.6*31
$GPGSV,3,1,12,23,71,107,39,09,70,314,37,16,47,062,41,07,44,262,43*7C
$GPGSV,3,2,12,26,21,044,38,03,20,177,,30,18,253,36,04,06,036,27*7E
$GPGSV,3,3,12,08,05,139,25,06,05,270,25,22,04,168,22,02,03,304,22*77
$GPRMC,233503.557,A,4348.0043,N,12038.7043,W,000.0,349.9,060118,,,A*72
$GPVTG,349.9,T,,M,000.0,N,000.0,K,A*0A
$GPGGA,233504.557,4348.0040,N,12038.7039,W,1,07,2.4,1388.5,M,-19.1,M,,0000*52
$GPGSA,A,3,07,16,09,23,26,30,06,,,,,,2.9,2.4,1.6*31
$GPGSV,3,1,12,23,71,107,39,09,70,314,37,16,47,062,41,07,44,262,43*7C
$GPGSV,3,2,12,26,21,044,37,03,20,177,,30,18,253,36,04,06,036,27*71
$GPGSV,3,3,12,08,05,139,25,06,05,270,26,22,04,168,22,02,03,304,22*74
$GPRMC,233504.557,A,4348.0040,N,12038.7039,W,000.0,349.9,060118,,,A*7B
$GPVTG,349.9,T,,M,000.0,N,000.0,K,A*0A
$GPGGA,233505.557,4348.0039,N,12038.7038,W,1,07,2.4,1387.2,M,-19.1,M,,0000*54
$GPGSA,A,3,07,16,09,23,26,30,06,,,,,,2.9,2.4,1.6*31
$GPGSV,3,1,12,23,71,107,39,09,70,314,37,16,47,062,41,07,44,262,43*7C
$GPGSV,3,2,12,26,21,044,37,03,20,177,,30,18,253,36,04,06,036,27*71
$GPGSV,3,3,12,08,05,139,25,06,05,270,26,22,04,168,22,02,03,304,22*74
$GPRMC,233505.557,A,4348.0039,N,12038.7038,W,000.0,349.9,060118,,,A*75
$GPVTG,349.9,T,,M,000.0,N,000.0,K,A*0A
$GPGGA,233506.557,4348.0037,N,12038.7036,W,1,07,2.4,1386.1,M,-19.1,M,,0000*55
$GPGSA,A,3,07,16,09,23,26,30,06,,,,,,2.9,2.4,1.6*31
$GPGSV,3,1,12,23,71,108,39,09,70,314,37,16,47,062,41,07,44,262,43*73
$GPGSV,3,2,12,26,21,044,38,03,20,177,,30,18,253,37,04,06,036,28*70
$GPGSV,3,3,12,08,05,139,25,06,05,270,26,22,04,168,21,02,03,304,22*77
$GPRMC,233506.557,A,4348.0037,N,12038.7036,W,000.0,349.9,060118,,,A*76
$GPVTG,349.9,T,,M,000.0,N,000.0,K,A*0A
$GPGGA,233507.557,4348.0036,N,12038.7035,W,1,07,2.4,1385.3,M,-19.1,M,,0000*57
$GPGSA,A,3,07,16,09,23,26,30,06,,,,,,2.9,2.4,1.6*31
$GPGSV,3,1,12,23,71,108,39,09,70,314,37,16,47,062,41,07,44,262,43*73
$GPGSV,3,2,12,26,21,044,38,03,20,177,,30,18,253,36,04,06,036,26*7F
$GPGSV,3,3,12,08,05,139,25,06,05,270,26,22,04,168,21,02,03,304,22*77
$GPRMC,233507.557,A,4348.0036,N,12038.7035,W,000.0,349.9,060118,,,A*75
$GPVTG,349.9,T,,M,000.0,N,000.0,K,A*0A
$GPGGA,233508.557,4348.0035,N,12038.7034,W,1,07,2.4,1384.7,M,-19.1,M,,0000*5F
